id,tag,name,city,country,company,longitude,latitude,feed_url,feed_format,system_type
0,cyclopolis-arxaiaolympia,Cyclopolis,#UNENCODABLE,GR,Cyclopolis Systems,21.6247265179,37.6419700934,http://arxaiaolympia.cyclopolis.gr/index.php/en/stations,,Cyclopolis
1,cyclopolis-kiato,Cyclopolis,#UNENCODABLE,GR,Cyclopolis Systems,22.7493819902,38.0132674508,http://kiato.cyclopolis.gr/index.php/en/stations,,Cyclopolis
2,idecycle,IDECycle,Pau,FR,"[u'Keolis', u'STAP']",-0.370797,43.2951,http://www.idecycle.com/stations/plan,,Keolis
3,bicipalma,Bicipalma,Palma,ES,,2.646634,39.57119,,,
4,vlille,V'lille,Lille,FR,Keolis,3.057256,50.62925,http://www.vlille.fr/stations/xml-stations.aspx,,Keolis
5,cyclopolis-rhodes,Cyclopolis,Rhodes,GR,Cyclopolis Systems,28.2246966,36.4509118,http://rhodes.cyclopolis.gr/index.php/en/stations,,Cyclopolis
6,cyclopolis-moschatotavros,Cyclopolis,#UNENCODABLE,GR,Cyclopolis Systems,23.6824746661,37.9538991434,http://moschatotavros.cyclopolis.gr/index.php/en/stations,,Cyclopolis
7,cyclopolis-limnos,Cyclopolis,Limnos,GR,Cyclopolis Systems,25.0586722,39.8747861,http://limnos.cyclopolis.gr/index.php/en/stations,,Cyclopolis
8,cyclopolis-nafplio,Cyclopolis,Maroussi,GR,Cyclopolis Systems,22.8093402872,37.5639397319,http://nafplio.cyclopolis.gr/index.php/en/stations,,Cyclopolis
9,decobike-miami-beach,Citi Bike Miami,"Miami Beach, FL",US,DecoBike LLC,-80.1300455,25.790654,http://www.citibikemiami.com/downtown-miami-locations.xml,,DecoBike
10,cyclopolis-aigialeia,Cyclopolis,Maroussi,GR,Cyclopolis Systems,22.0821570196,38.2511101325,http://aigialeia.cyclopolis.gr/index.php/en/stations,,Cyclopolis
11,cyclopolis-marathon,Cyclopolis,Marathon,GR,Cyclopolis Systems,23.9776389963,38.0855680022,http://marathon.cyclopolis.gr/index.php/en/stations,,Cyclopolis
12,bicileon,Bicileon,#UNENCODABLE,ES,ITCL,-5.5670959,42.5987263,,,Bicicard
13,cyclopolis-maroussi,Cyclopolis,Maroussi,GR,Cyclopolis Systems,23.8083299536,38.0568722388,http://maroussi.cyclopolis.gr/index.php/en/stations,,Cyclopolis
14,cyclopolis-neasmyrni,Cyclopolis,#UNENCODABLE,GR,Cyclopolis Systems,23.7126,37.9381,http://neasmyrni.cyclopolis.gr/index.php/en/stations,,Cyclopolis
15,cyclopolis-florina,Cyclopolis,Florina,GR,Cyclopolis Systems,21.4245222,40.8016111,http://florina.cyclopolis.gr/index.php/en/stations,,Cyclopolis
16,decobike-san-diego,Decobike San Diego,"San Diego, CA",US,DecoBike LLC,-117.1610838,32.715738,http://www.decobike.com/sandiego/playmoves.xml,,DecoBike
17,bicincitta-siena,#UNDECODABLE,Siena,IT,Comunicare S.r.l.,11.3306,43.3186,,,
18,bicincitta-parco-dei-colli-di-bergamo,#UNDECODABLE,Parco dei Colli di Bergamo,IT,Comunicare S.r.l.,9.649230073016383,45.72295637032245,,,
19,bicincitta-mantova,#UNDECODABLE,Mantova,IT,Comunicare S.r.l.,10.783718973016335,45.15866370764634,,,
20,bicincitta-assemini,#UNDECODABLE,Assemini,IT,Comunicare S.r.l.,9.006601555294765,39.28956306007679,,,
21,bicincitta-tortoli,#UNDECODABLE,#UNENCODABLE,IT,Comunicare S.r.l.,9.654953570777934,39.92664489852196,,,
22,bicincitta-gaeta,#UNDECODABLE,Gaeta,IT,Comunicare S.r.l.,13.584335125656139,41.209620965538036,,,
23,bicincitta-borgarello,#UNDECODABLE,Borgarello,IT,Comunicare S.r.l.,9.136150475640875,45.23963753440171,,,
24,bicincitta-pizzighettone-formigara,#UNDECODABLE,Pizzighettone e Formigara,IT,Comunicare S.r.l.,9.778087948479424,45.186748819167434,,,
25,bicincitta-montecatini-terme,#UNDECODABLE,Montecatini Terme,IT,Comunicare S.r.l.,10.764385656591799,43.88362791665083,,,
26,bicincitta-carrara,#UNDECODABLE,Carrara,IT,Comunicare S.r.l.,10.097172450401331,44.07731805550891,,,
27,bicincitta-cernobbio,#UNDECODABLE,Cernobbio,IT,Comunicare S.r.l.,9.073591857810925,45.83745947067494,,,
28,tigullionbike,Tigullionbike,Sestri Levante - Lavagna,IT,Comunicare S.r.l.,9.395714,44.272554,,,
29,ascoli-piceno,Ascoli Piceno,Ascoli Piceno,IT,Comunicare S.r.l.,13.583333,42.85,,,
30,portofino-park-and-bike,Portofino Park and Bike,Santa Margherita Ligure - Portofino - Camogli,IT,Comunicare S.r.l.,9.211264,44.335084,,,
31,arbike,ARbike,Arezzo,IT,Comunicare S.r.l.,11.87,43.473333,,,
32,bigi,BiGi,Bergamo,IT,Comunicare S.r.l.,9.67,45.695,,,
33,bici-in-busto,Bici in Busto,Busto Arsizio,IT,Comunicare S.r.l.,8.852062,45.610555,,,
34,biella,Biella,Biella,IT,Comunicare S.r.l.,8.051111,45.5775,,,
35,meglio-in-bici,Meglio in Bici,Cernusco sul Naviglio - Pioltello - Carugate,IT,Comunicare S.r.l.,9.341984,45.520541,,,
36,cuneo,Cuneo,Cuneo,IT,Comunicare S.r.l.,7.541428,44.384238,,,
37,lecco,Lecco,Lecco,IT,Comunicare S.r.l.,9.392366,45.853554,,,
38,free-bike-sharing,FRee Bike sharing,Frosinone,IT,Comunicare S.r.l.,13.342123,41.645081,,,
39,bike-in-bath,Bike in Bath,Bath,GB,Comunicare S.r.l.,-2.362404,51.381531,,,
40,manerba-in-bici,Manerba in Bici,Manerba del Garda,IT,Comunicare S.r.l.,10.559406,45.561179,,,
41,novara,Novara,Novara,IT,Comunicare S.r.l.,8.622165,45.44574,,,
42,goodbike,GoodBike,Padova,IT,Comunicare S.r.l.,11.8767611,45.4064349,,,
43,mar-e-bici,Mar e Bici,Marciana Marina,IT,Comunicare S.r.l.,10.196514,42.805855,,,
44,parkinbici,Parkinbici,#UNENCODABLE,IT,Comunicare S.r.l.,16.037292,41.833502,,,
45,parma,Parma,Parma,IT,Comunicare S.r.l.,10.3279036,44.801485,,,
46,pavia-in-bici,Pavia in bici,Pavia,IT,Comunicare S.r.l.,9.1582069,45.1847248,,,
47,bici-perugia,Bici Perugia,Perugia,IT,Comunicare S.r.l.,12.3908279,43.1107168,,,
48,piacenza,Piacenza,Piacenza,IT,Comunicare S.r.l.,9.6865813,45.0473754,,,
49,reggio-emilia,Reggio Emilia,Reggio Emilia,IT,Comunicare S.r.l.,10.6296859,44.6989932,,,
50,pinerolo,Pinerolo,Pinerolo,IT,Comunicare S.r.l.,7.3499953,44.8850256,,,
51,rimini,Rimini,Rimini,IT,Comunicare S.r.l.,12.5646003,44.0570817,,,
52,bicischio,BiciSchio,Schio,IT,Comunicare S.r.l.,11.3597702,45.7170517,,,
53,saluzzo,Saluzzo,Saluzzo,IT,Comunicare S.r.l.,7.492735499999999,44.6445404,,,
54,savigliano,Savigliano,Savigliano,IT,Comunicare S.r.l.,7.662463499999999,44.6470327,,,
55,terni,Terni,Terni,IT,Comunicare S.r.l.,12.6426604,42.5636168,,,
56,tirano-in-bici,Tirano in Bici,Tirano,IT,Comunicare S.r.l.,10.1696056,46.216168,,,
57,udine,Udine,Udine,IT,Comunicare S.r.l.,13.2345794,46.0710668,,,
58,ustica,Ustica,Ustica,IT,Comunicare S.r.l.,13.1682675,38.7031179,,,
59,bici-co,BICI&CO,Como,IT,Comunicare S.r.l.,9.0851765,45.8080597,,,
60,venezia,Venezia,Venezia,IT,Comunicare S.r.l.,12.3155151,45.4408474,,,
61,speziainbici,Speziainbici,La Spezia,IT,Comunicare S.r.l.,9.824082599999999,44.1024504,,,
62,to-bike,[TO]BIKE,Torino,IT,Comunicare S.r.l.,7.685676,45.07098200000001,,,
63,ciclopi,Ciclopi,Pisa,IT,Comunicare S.r.l.,10.4016888,43.7228386,,,
64,cagliari,Cagliari,Cagliari,IT,Comunicare S.r.l.,9.121399,39.220817,,,
65,gimme-bike,Gimme Bike,Varese,IT,Comunicare S.r.l.,8.823913,45.8183902,,,
66,sellero,Sellero,Sellero,IT,Comunicare S.r.l.,10.353434085845947,46.06304765446406,,,
67,ugento,Ugento,Ugento,IT,Comunicare S.r.l.,18.1582962,39.9273518,,,
68,civitavecchia,Civitavecchia,Civitavecchia,IT,Comunicare S.r.l.,11.7922462,42.0937524,,,
69,prata-camportaccio,Prata Camportaccio,Prata Camportaccio,IT,Comunicare S.r.l.,9.3964914,46.3042146,,,
70,longanoinbici,LonganoinBici,Barcellona Pozzo di Gotto,IT,Comunicare S.r.l.,15.212116241455078,38.149812517944284,,,
71,cassano-d-adda,Cassano d'Adda,Cassano d'Adda,IT,Comunicare S.r.l.,9.5155813,45.5309616,,,
72,rietinbici,Rietinbici,Rieti,IT,Comunicare S.r.l.,12.86099910736084,42.40262397383167,,,
73,bianzone-in-bici,Bianzone in Bici,Bianzone,IT,Comunicare S.r.l.,10.109354,46.188197,,,
74,lecce,lecce,Lecce,IT,Comunicare S.r.l.,18.177824020385742,40.35040350928062,,,
75,castellucchio,Castellucchio,Castellucchio,IT,Comunicare S.r.l.,10.651202201843262,45.15047821582959,,,
76,notoinbici,NotoinBici,Noto,IT,Comunicare S.r.l.,15.074658393859863,36.889437754839854,,,
77,enna,Enna,Enna,IT,Comunicare S.r.l.,14.27973747253418,37.56342572664775,,,
78,carbonia,Carbonia,Carbonia,IT,Comunicare S.r.l.,8.522222,39.167222,,,
79,mobike,MoBike,Genova,IT,Comunicare S.r.l.,8.92908986230462,44.40430089372731,,,
80,pordenone,Pordenone,Pordenone,IT,Comunicare S.r.l.,12.674491020251475,45.94790101663391,,,
81,e-motion-trento,e.motion,Trento,IT,Comunicare S.r.l.,11.122145390351879,46.06643205823519,,,
82,scegli-in-bici,Scegli in Bici,Cremona,IT,Comunicare S.r.l.,10.0222648619018,45.134914104864116,,,
83,e-motion-pergine-valsugana,e.motion,Pergine Valsugana,IT,Comunicare S.r.l.,11.239041694195503,46.06050419001399,,,
84,e-motion-rovereto,e.motion,Rovereto,IT,Comunicare S.r.l.,11.042242751867644,45.88710661061543,,,
85,we-love-bike,We LOve bike,Provincia di Lodi,IT,Comunicare S.r.l.,9.651688106933548,45.1249548189115,,,
86,monopoli-bike,Monopoli BIKE,Monopoli,IT,Comunicare S.r.l.,17.311687995336918,40.94519109440738,,,
87,bicinquartucciu,BicinQuartucciu,Quartucciu,IT,Comunicare S.r.l.,9.179296426489255,39.25043149806156,,,
88,andria,Andria in Bici,Andria,IT,Comunicare S.r.l.,16.296983922753956,41.224346932834,,,
89,olbia-bike,Olbia Bike,Olbia,IT,Comunicare S.r.l.,9.4994397,40.9240543,,,
90,bassanodelgrappa,Bassano del Grappa,Bassano del Grappa,IT,Comunicare S.r.l.,11.736667,45.768611,,,
91,savona,Savona,Savona,IT,Comunicare S.r.l.,8.463126708984431,44.29516444397244,,,
92,tradate,Tradate,Tradate,IT,Comunicare S.r.l.,8.915993391601548,45.70938576720161,,,
93,brindisi,BrindisiByBike,Brindisi,IT,Comunicare S.r.l.,17.940774547082572,40.637580319936106,,,
94,alba,Alba,Alba,IT,Comunicare S.r.l.,8.083333,44.716667,,,
95,bariinbici,Bari in Bici,Bari,IT,Comunicare S.r.l.,16.866667,41.125278,,,
96,bra,Bra,Bra,IT,Comunicare S.r.l.,7.854795,44.694224,,,
97,casalmaggiore,Casalmaggiore,Casalmaggiore,IT,Comunicare S.r.l.,10.419245,44.983499,,,
98,biciamo,BICIamo,#UNENCODABLE,IT,Comunicare S.r.l.,9.12569,45.73626,,,
99,chivasso,Chivasso,Chivasso,IT,Comunicare S.r.l.,7.888935,45.189765,,,
100,jesinbici,JesinBici,Jesi,IT,Comunicare S.r.l.,13.244448,43.522601,,,
101,ossola,#UNENCODABLE,Santa Maria Maggiore - Malesco - Villette,IT,Comunicare S.r.l.,8.499169,46.127196,,,
102,noviligure,Novi Ligure,Novi Ligure,IT,Comunicare S.r.l.,8.7858956,44.7620048,,,
103,nbici,nbici,Pamplona,ES,Comunicare S.r.l.,-1.6482653,42.8116631,,,
104,oderzo,Oderzo,Oderzo,IT,Comunicare S.r.l.,12.4973111,45.77976460000001,,,
105,pistoiainbici,PistoiainBici,Pistoia,IT,Comunicare S.r.l.,10.9078587,43.9303475,,,
106,treviso,Treviso,Treviso,IT,Comunicare S.r.l.,12.243039,45.6669011,,,
107,pontedera,Pontedera,Pontedera,IT,Comunicare S.r.l.,10.6363586,43.6625156,,,
108,prato,Prato,Prato,IT,Comunicare S.r.l.,11.102228,43.8777049,,,
109,sandonadipiave,#UNENCODABLE,#UNENCODABLE,IT,Comunicare S.r.l.,12.5654299,45.633185,,,
110,settimotorinese,Settimo Torinese,Settimo Torinese,IT,Comunicare S.r.l.,7.770978400000001,45.139586,,,
111,gobike,GoBike,Siracusa,IT,Comunicare S.r.l.,15.2865861,37.0754739,,,
112,sondrio,Sondrio,Sondrio,IT,Comunicare S.r.l.,9.8787674,46.1698583,,,
113,vercelli,Vercelli,Vercelli,IT,Comunicare S.r.l.,8.418573499999999,45.32022720000001,,,
114,villorba,Villorba,Villorba,IT,Comunicare S.r.l.,12.2343848,45.7411227,,,
115,roma-n-bike,Roma'n'Bike,Roma,IT,Comunicare S.r.l.,12.4825199,41.8929163,,,
116,bikeu-bra,Bydgoski rower aglomeracyjny,Bydgoszcz,PL,Bike U Sp. z o.o.,18.00038,53.12193,,,Bike U
117,bikes-srm,#UNENCODABLE,Szczecin,PL,Bike U Sp. z o.o.,14.542222,53.438056,,,Bike U
118,bbbike,BBBike,#UNENCODABLE,PL,Bike U Sp. z o.o.,19.044444,49.8225,,,Bike U
119,bikemi,BikeMi,Milano,IT,ClearChannel,9.186516,45.4654542,https://www.bikemi.com/en/stations-map.aspx,,SmartBike
120,bizi,Bizi,Zaragoza,ES,ClearChannel,-0.8895811,41.6487908,https://www.bizizaragoza.com/es/formmap/getJsonObject,get_json_stations,SmartBike
121,velo-antwerpen,Velo Antwerpen,Antwerpen,BE,ClearChannel,4.4,51.216667,https://www.velo-antwerpen.be/availability_map/getJsonObject,get_json_v2_stations,SmartBike
122,bicing,Bicing,Barcelona,ES,ClearChannel,2.1734035,41.3850639,https://www.bicing.cat/availability_map/getJsonObject,get_json_v2_stations,SmartBike
123,ecobici,EcoBici,#UNENCODABLE,MX,ClearChannel,-99.133208,19.4326077,https://www.ecobici.df.gob.mx/availability_map/getJsonObject,get_json_v2_stations,SmartBike
124,nextbike-leipzig,Nextbike,Leipzig,DE,Nextbike GmbH,12.3625,51.3415,,,Nextbike
125,nextbike-tubingen,Nextbike,#UNENCODABLE,DE,Nextbike GmbH,9.05591,48.5203,,,Nextbike
126,nextbike-luzern,Nextbike,Luzern,CH,Nextbike GmbH,8.30446,47.0472,,,Nextbike
127,sixt-latvia-riga,SiXT,#UNENCODABLE,LV,Nextbike GmbH,24.1033,56.9453,,,Nextbike
128,metropolradruhr-germany-dortmund,metropolradruhr,Dortmund,DE,Nextbike GmbH,7.46255,51.5141,,,Nextbike
129,metropolradruhr-germany-bochum,metropolradruhr,Bochum,DE,Nextbike GmbH,7.2133,51.4813,,,Nextbike
130,metropolradruhr-germany-essen,metropolradruhr,Essen,DE,Nextbike GmbH,7.02301,51.4425,,,Nextbike
131,metropolradruhr-germany-hamm,metropolradruhr,Hamm,DE,Nextbike GmbH,7.84836,51.6775,,,Nextbike
132,metropolradruhr-germany-bottrop,metropolradruhr,Bottrop,DE,Nextbike GmbH,6.94611,51.5263,,,Nextbike
133,metropolradruhr-germany-herne,metropolradruhr,Herne,DE,Nextbike GmbH,7.21493,51.5363,,,Nextbike
134,metropolradruhr-germany-gelsenkirchen,metropolradruhr,Gelsenkirchen,DE,Nextbike GmbH,7.07039,51.5404,,,Nextbike
135,metropolradruhr-germany-duisburg,metropolradruhr,Duisburg,DE,Nextbike GmbH,6.77513,51.4487,,,Nextbike
136,metropolradruhr-germany-mulheim-a-d-r,metropolradruhr,#UNENCODABLE,DE,Nextbike GmbH,6.87401,51.4308,,,Nextbike
137,metropolradruhr-germany-oberhausen,metropolradruhr,Oberhausen,DE,Nextbike GmbH,6.85169,51.4936,,,Nextbike
138,nextbike-munchen,Nextbike,#UNENCODABLE,DE,Nextbike GmbH,11.5791,48.1392,,,Nextbike
139,sixt-latvia-jurmala,SiXT,#UNENCODABLE,LV,Nextbike GmbH,23.8225,56.9732,,,Nextbike
140,nextbike-wachau,LEIHRADL,Wachau,AT,Nextbike GmbH,15.4166,48.3188,,,Nextbike
141,nextbike-tulln,LEIHRADL,Tulln,AT,Nextbike GmbH,16.0569,48.3269,,,Nextbike
142,nextbike-triestingtal,LEIHRADL,Triestingtal,AT,Nextbike GmbH,16.0812,47.9835,,,Nextbike
143,nextbike-thermenregion,LEIHRADL,Thermenregion,AT,Nextbike GmbH,16.2646,47.9892,,,Nextbike
144,nextbike-flensburg,Nextbike,Flensburg,DE,Nextbike GmbH,9.43571,54.7804,,,Nextbike
145,nextbike-romerland,LEIHRADL,#UNENCODABLE,AT,Nextbike GmbH,16.853,48.0909,,,Nextbike
146,nextbike-obb-bahnhofe,LEIHRADL,#UNENCODABLE,AT,Nextbike GmbH,16.3092,48.0193,,,Nextbike
147,nextbike-offenburg,Nextbike,Offenburg,DE,Nextbike GmbH,7.94243,48.4721,,,Nextbike
148,nextbike-wr-neustadt,LEIHRADL,Wr.Neustadt,AT,Nextbike GmbH,16.2498,47.8221,,,Nextbike
149,nextbike-potsdam,Nextbike,Potsdam,DE,Nextbike GmbH,13.0676,52.3997,,,Nextbike
150,nextbike-bielefeld,Nextbike,Bielefeld,DE,Nextbike GmbH,8.53286,52.0257,,,Nextbike
151,nextbike-gutersloh,Nextbike,#UNENCODABLE,DE,Nextbike GmbH,8.39275,51.9049,,,Nextbike
152,pronto-cycle-share,Pronto Cycle Share,"Seattle, WA",US,"['Pronto!', 'Alta Bicycle Share, Inc']",-122.332071,47.606209,https://secure.prontocycleshare.com/data/stations.json,,Pronto
153,nextbike-krems-ost,LEIHRADL,Krems Ost,AT,Nextbike GmbH,15.6909,48.4183,,,Nextbike
154,nextbike-unteres-traisental,LEIHRADL,Unteres Traisental,AT,Nextbike GmbH,15.6878,48.3343,,,Nextbike
155,nextbike-piestingtal,LEIHRADL,Piestingtal,AT,Nextbike GmbH,15.9467,47.8841,,,Nextbike
156,nextbike-marchfeld,LEIHRADL,Marchfeld,AT,Nextbike GmbH,16.7116,48.2741,,,Nextbike
157,nextbike-10vorwien,LEIHRADL,10vorWien,AT,Nextbike GmbH,16.2735,48.3462,,,Nextbike
158,usedomrad-germany-usedom,UsedomRad,Usedom,DE,Nextbike GmbH,13.9925,53.9779,,,Nextbike
159,nextbike-augsburg,Nextbike,Augsburg,DE,Nextbike GmbH,10.8916,48.3647,,,Nextbike
160,nextbike-traisen-golsental,LEIHRADL,#UNENCODABLE,AT,Nextbike GmbH,15.6129,47.9504,,,Nextbike
161,nextbike-konya,Nextbike,Konya,TR,Nextbike GmbH,32.4957,37.8715,,,Nextbike
162,nextbike-norderstedt,Nextbike,Norderstedt,DE,Nextbike GmbH,10.002,53.6969,,,Nextbike
163,nextbike-laa-an-der-thaya,LEIHRADL,Laa an der Thaya,AT,Nextbike GmbH,16.3878,48.7196,,,Nextbike
164,nextbike-sudheide,LEIHRADL,#UNENCODABLE,AT,Nextbike GmbH,16.3937,48.1077,,,Nextbike
165,nextbike-limassol,Nextbike,Limassol,CY,Nextbike GmbH,33.0464,34.6823,,,Nextbike
166,nextbike-oberes-ybbstal,LEIHRADL,Oberes Ybbstal,AT,Nextbike GmbH,15.0073,47.8205,,,Nextbike
167,nextbike-heidelberg,VRNnextbike,Heidelberg,DE,Nextbike GmbH,8.68933,49.4113,,,Nextbike
168,nextbike-christchurch,Nextbike,Christchurch,NZ,Nextbike GmbH,172.621,-43.5341,,,Nextbike
169,stadtrad-innsbruck-innsbruck,Stadtrad,Innsbruck,AT,Nextbike GmbH,11.3961,47.2632,,,Nextbike
170,nextbike-mannheim,VRNnextbike,Mannheim,DE,Nextbike GmbH,8.49054,49.4621,,,Nextbike
171,nextbike-tullnerfeld-west,LEIHRADL,Tullnerfeld West,AT,Nextbike GmbH,15.9065,48.2994,,,Nextbike
172,nextbike-berlin,Nextbike,Berlin,DE,Nextbike GmbH,13.3563,52.5087,,,Nextbike
173,sz-bike-germany-dresden,SZ-bike,Dresden,DE,Nextbike GmbH,13.7387,51.0535,,,Nextbike
174,facherrad-germany-karlsruhe,#UNENCODABLE,Karlsruhe,DE,Nextbike GmbH,8.41827,49.0102,,,Nextbike
175,nextbike-hollabrunn,LEIHRADL,Hollabrunn,AT,Nextbike GmbH,16.0785,48.562,,,Nextbike
176,nextbike-wienerwald,LEIHRADL,WienerWald,AT,Nextbike GmbH,16.1197,48.1917,,,Nextbike
177,nextbike-dobrich,Nextbike,Dobrich,BG,Nextbike GmbH,27.8285,43.567,,,Nextbike
178,bykystations-uae-dubai,BYKYstations,Dubai,AE,Nextbike GmbH,55.2722,25.2435,,,Nextbike
179,nextbike-zagreb,Nextbike,Zagreb,HR,Nextbike GmbH,15.9643,45.7988,,,Nextbike
180,ebikestation-stuttgart-germany-bietigheim-bissingen,ebikestation,Bietigheim-Bissingen,DE,Nextbike GmbH,9.12518,48.9495,,,Nextbike
181,nextbike-neusiedlersee,LEIHRADL,NeusiedlerSee,AT,Nextbike GmbH,16.761,47.839,,,Nextbike
182,bykystations-uae-al-sharjah,BYKYstations,Al Sharjah,AE,Nextbike GmbH,55.2255,25.2199,,,Nextbike
183,nextbike-bath,Nextbike,Bath,GB,Nextbike GmbH,-2.36275,51.382,,,Nextbike
184,belfastbikes-belfast,BelfastBikes,Belfast,GB,Nextbike GmbH,-5.92918,54.5969,,,Nextbike
185,nextbike-friedrichshafen,Nextbike,Friedrichshafen,DE,Nextbike GmbH,9.47837,47.6519,,,Nextbike
186,nextbike-glasgow,Nextbike,Glasgow,GB,Nextbike GmbH,-4.25549,55.8589,,,Nextbike
187,nextbike-stirling,Nextbike,Stirling,GB,Nextbike GmbH,-3.9369,56.1165,,,Nextbike
188,bike-point-sibenik-sibenik,Bike Point,#UNENCODABLE,HR,Nextbike GmbH,15.8982,43.733,,,Nextbike
189,karbis-turkey-seferihisar,KARBIS,Seferihisar,TR,Nextbike GmbH,26.8386,38.1962,,,Nextbike
190,lrm-lublin-poland-lublin,LRM,Lublin,PL,Nextbike GmbH,22.5658,51.2597,,,Nextbike
191,grm-grodzisk-poland-grodzisk-mazowiecki,GRM,Grodzisk Mazowiecki,PL,Nextbike GmbH,20.6265,52.113,,,Nextbike
192,healthy-ride-pittsburgh-pittsburgh,Healthy Ride,Pittsburgh,US,Nextbike GmbH,-79.9945,40.4459,,,Nextbike
193,nextbike-cambridge,Nextbike,Cambridge,NZ,Nextbike GmbH,175.472,-37.8914,,,Nextbike
194,ebikestation-stuttgart-germany-schwieberdingen,ebikestation,Schwieberdingen,DE,Nextbike GmbH,9.07419,48.8723,,,Nextbike
195,nextbike-quickborn,Nextbike,Quickborn,DE,Nextbike GmbH,9.90272,53.7333,,,Nextbike
196,hudsonbikeshare-hoboken,Hudsonbikeshare,Hoboken,US,Nextbike GmbH,-74.0341,40.7447,,,Nextbike
197,ibike-saudi-arabia-king-abdullah-economic-city,iBike,King Abdullah Economic City,SA,Nextbike GmbH,39.1031,22.3113,,,Nextbike
198,nextbike-speyer,VRNnextbike,Speyer,DE,Nextbike GmbH,8.45295,49.3126,,,Nextbike
199,nextbike-wurzburg,Nextbike,#UNENCODABLE,DE,Nextbike GmbH,9.93333,49.8,,,Nextbike
200,nextbike-ludwigshafen,VRNnextbike,Ludwigshafen,DE,Nextbike GmbH,8.43287,49.4741,,,Nextbike
201,ebikestation-stuttgart-germany-waiblingen,ebikestation,Waiblingen,DE,Nextbike GmbH,9.31667,48.8333,,,Nextbike
202,ebikestation-stuttgart-germany-vaihingen-an-der-enz,ebikestation,Vaihingen an der Enz,DE,Nextbike GmbH,8.96121,48.9334,,,Nextbike
203,skybike-west-palm-beach-west-palm-beach-florida,Skybike,West Palm Beach Florida,US,Nextbike GmbH,-80.0821,26.7125,,,Nextbike
204,nextbike-serfaus,Nextbike,Serfaus,AT,Nextbike GmbH,10.6048,47.0387,,,Nextbike
205,ebikestation-stuttgart-germany-herrenberg,ebikestation,Herrenberg,DE,Nextbike GmbH,8.86716,48.595,,,Nextbike
206,nextbike-gospic,Nextbike,#UNENCODABLE,HR,Nextbike GmbH,15.375,44.5469,,,Nextbike
207,flashfleet-kent-state-university,Flashfleet,Kent State University,US,Nextbike GmbH,-81.3415,41.1491,,,Nextbike
208,rower-gminny-poland-juchnowiec-koscielny,ROWER GMINNY,#UNENCODABLE,PL,Nextbike GmbH,23.1204,53.0928,,,Nextbike
209,nextbike-offenbach-am-main,Nextbike,Offenbach am Main,DE,Nextbike GmbH,8.73825,50.1093,,,Nextbike
210,nextbike-karlovac,Nextbike,Karlovac,HR,Nextbike GmbH,15.5503,45.4905,,,Nextbike
211,nextbike-dusseldorf,Nextbike,#UNENCODABLE,DE,Nextbike GmbH,6.77204,51.2243,,,Nextbike
212,nextbike-magdeburg,Nextbike,Magdeburg,DE,Nextbike GmbH,11.6342,52.1268,,,Nextbike
213,nextbike-hamburg,Nextbike,Hamburg,DE,Nextbike GmbH,9.99052,53.5506,,,Nextbike
214,nextbike-auckland,Nextbike,Auckland,NZ,Nextbike GmbH,174.763,-36.8603,,,Nextbike
215,nextbike-st-polten,LEIHRADL,#UNENCODABLE,AT,Nextbike GmbH,15.6232,48.2058,,,Nextbike
216,nextbike-modling,LEIHRADL,#UNENCODABLE,AT,Nextbike GmbH,16.3202,48.1047,,,Nextbike
217,nextbike-frankfurt,Nextbike,Frankfurt,DE,Nextbike GmbH,8.66375,50.1072,,,Nextbike
218,nextbike-hannover,Nextbike,Hannover,DE,Nextbike GmbH,9.73569,52.3721,,,Nextbike
219,bubi,MOL Bubi,Budapest,HU,Nextbike GmbH,19.040235,47.497912,,,Nextbike
220,norisbike-germany-nurnberg,NorisBike,#UNENCODABLE,DE,Nextbike GmbH,11.0814,49.4479,,,Nextbike
221,kvb-rad,KVB Rad,#UNENCODABLE,DE,Nextbike GmbH,6.96053,50.9364,,,Nextbike
222,nextbike-sursee,Nextbike,Sursee,CH,Nextbike GmbH,8.10877,47.1713,,,Nextbike
223,bemowo-bike,Bemowo Bike,Warszawa,PL,Nextbike GmbH,20.929,52.2606,,,Nextbike
224,wroclawski-rower-miejski,Rower Miejski,#UNENCODABLE,PL,Nextbike GmbH,17.0485,51.1097,,,Nextbike
225,opole-bike,Opole Bike,Opole,PL,Nextbike GmbH,17.9276,50.6645,,,Nextbike
226,rower-trojmiejski,#UNENCODABLE,#UNENCODABLE,PL,Nextbike GmbH,18.6026,54.4349,,,Nextbike
227,poznanski-rower-miejski,Rower Miejski,#UNENCODABLE,PL,Nextbike GmbH,16.9258,52.4116,,,Nextbike
228,veturilo,VETURILO,Warszawa,PL,Nextbike GmbH,21.0024,52.2345,,,Nextbike
229,kmk-bike,KMK Bike,#UNENCODABLE,PL,Nextbike GmbH,19.9374,50.0395,,,Nextbike
230,biker-bialystok,BiKeR,#UNENCODABLE,PL,Nextbike GmbH,23.1564,53.1299,,,Nextbike
231,konstancinski-rower-miejski,Rower Miejski,Konstancin,PL,Nextbike GmbH,21.1075,52.0879,,,Nextbike
232,city-by-bike,City By Bike,Katowice,PL,Nextbike GmbH,19.0266,50.2534,,,Nextbike
233,bixi-montreal,Bixi,"Montreal, QC",CA,PBSC,-73.55399249999999,45.5086699,https://montreal.bixi.com/data/bikeStations.xml,xml,Bixi
234,barclays-cycle-hire,Santander Cycles,London,GB,"[u'PBSC', u'Serco Group plc']",-0.1198244,51.51121389999999,http://www.tfl.gov.uk/tfl/syndication/feeds/cycle-hire/livecyclehireupdates.xml,xml,Bixi
235,capital-bikeshare,Capital BikeShare,"Washington, DC",US,"[u'PBSC', u'Alta Bicycle Share, Inc']",-77.03701629999999,38.8967584,http://capitalbikeshare.com/data/stations/bikeStations.xml,xml,Bixi
236,bike-chattanooga,Bike Chattanooga,"Chattanooga, TN",US,"[u'PBSC', u'Alta Bicycle Share, Inc']",-85.3096801,35.0456297,http://www.bikechattanooga.com/stations/json,json,Bixi
237,nice-ride,Nice Ride,"Minneapolis, MN",US,"[u'PBSC', u'Alta Bicycle Share, Inc']",-93.26666999999999,44.983334,http://secure.niceridemn.org/data2/bikeStations.xml,xml,Bixi
238,bixi-toronto,Bike Share Toronto,"Toronto, ON",CA,"[u'PBSC', u'Alta Bicycle Share, Inc']",-79.3831843,43.653226,http://bikesharetoronto.com/stations/json,json,Bixi
239,melbourne-bike-share,Melbourne Bike Share,Melbourne,AU,"[u'PBSC', u'Alta Bicycle Share, Inc']",144.96328,-37.814107,http://www.melbournebikeshare.com.au/stationmap/data,json_from_xml,Bixi
240,citi-bike-nyc,Citi Bike,"New York, NY",US,"[u'PBSC', u'Alta Bicycle Share, Inc', u'NYC Bike Share']",-74.00597309999999,40.7143528,https://citibikenyc.com/stations/json,json,Bixi
241,bay-area-bike-share,Bay Area Bike Share,"San Francisco Bay Area, CA",US,"[u'PBSC', u'Alta Bicycle Share, Inc']",-122.25,37.7141454,http://bayareabikeshare.com/stations/json,json,Bixi
242,divvy,Divvy,"Chicago, IL",US,"[u'PBSC', u'Alta Bicycle Share, Inc']",-87.6297982,41.8781136,https://divvybikes.com/stations/json,json,Bixi
243,hubway,Hubway,"Boston, MA",US,"[u'PBSC', u'Alta Bicycle Share, Inc']",-71.0597732,42.3584308,http://www.thehubway.com/data/stations/bikeStations.xml,xml,Bixi
244,we-cycle,WE-cycle,"Aspen, CO",US,"[u'PBSC', u'Alta Bicycle Share, Inc']",-106.837002,39.194951,https://www.we-cycle.org/pbsc/stations.php,json,Bixi
245,citybike-wien,Citybike Wien,Wien,AT,Gewista Werbegesellschaft m.b.H,16.3738189,48.2081743,,,CityBike
246,cogo,CoGo,"Columbus, OH",US,"[u'PBSC', u'Alta Bicycle Share, Inc']",-82.983333,39.983333,http://www.cogobikeshare.com/stations/json,json,Bixi
247,girocleta,Girocleta,Girona,ES,ICNITA S.L.,2.8214264,41.9794005,http://www.girocleta.cat/ESTACIONS.aspx,,Emovity
248,konrad,Konrad,Kassel,DE,DB Rent GmbH,9.4606148,51.3148861,,,Call-A-Bike
249,callabike-darmstadt,Call-A-Bike Darmstadt,Darmstadt,DE,DB Rent GmbH,8.6527299,49.8707135,,,Call-A-Bike
250,callabike-berlin,Call-A-Bike Berlin,Berlin,DE,DB Rent GmbH,13.4251364,52.5075419,,,Call-A-Bike
251,callabike-frankfurt,Call-A-Bike Frankfurt,Frankfurt am Main,DE,DB Rent GmbH,8.6365638,50.121212,,,Call-A-Bike
252,stadtrad,StadtRAD Hamburg,Hamburg,DE,DB Rent GmbH,9.9278215,53.558572,,,Call-A-Bike
253,callabike-koln,#UNENCODABLE,#UNENCODABLE,DE,DB Rent GmbH,6.9673223,50.9572449,,,Call-A-Bike
254,callabike-frankfurt-airport,Call-A-Bike Frankfurt Airport,Frankfurt am Main Airport,DE,DB Rent GmbH,8.562152,50.037933,,,Call-A-Bike
255,callabike-luneburg,#UNENCODABLE,#UNENCODABLE,DE,DB Rent GmbH,10.4226391,53.2390538,,,Call-A-Bike
256,callabike-marburg,Call-A-Bike Marburg,Marburg,DE,DB Rent GmbH,8.7428139,50.7983011,,,Call-A-Bike
257,callabike-munchen,#UNENCODABLE,#UNENCODABLE,DE,DB Rent GmbH,11.5418357,48.1549107,,,Call-A-Bike
258,callabike-russelsheim,#UNENCODABLE,#UNENCODABLE,DE,DB Rent GmbH,8.4528392,49.9820031,,,Call-A-Bike
259,callabike-stuttgart,Call-A-Bike Stuttgart,Stuttgart,DE,DB Rent GmbH,9.1772152,48.779209,,,Call-A-Bike
260,callabike-wiesbaden,Call-A-Bike Wiesbaden,Wiesbaden,DE,DB Rent GmbH,8.2483534,50.0724825,,,Call-A-Bike
261,bike-sharing-napoli,Bike Sharing Napoli,Napoli,IT,CleaNap,14.2681244,40.8517746,http://www.movinap.it/_CI/api_v1/station/getAllStationsInfo,,CallLock
